City,Lat,Lng,Max Temp.,Humidity,Cloudiness,Wind Speed,Country,Date
rikitea,-23.1203,-134.9692,79.03,72,100,16.31,PF,1619229547
gizo,-8.103,156.8419,84.33,71,79,7.65,SB,1619229614
punta arenas,-53.15,-70.9167,42.8,93,40,3.44,CL,1619229607
bluff,-46.6,168.3333,48.99,87,88,7.0,NZ,1619229496
kapaa,22.0752,-159.319,77.0,73,75,17.27,US,1619229561
jamestown,42.097,-79.2353,48.2,43,1,12.66,US,1619229615
thompson,55.7435,-97.8558,24.8,39,20,11.5,CA,1619229461
hobart,-42.8794,147.3294,60.8,51,75,12.66,AU,1619229356
tuatapere,-46.1333,167.6833,48.99,89,72,1.01,NZ,1619229615
kaitangata,-46.2817,169.8464,55.99,68,100,1.99,NZ,1619229616
butaritari,3.0707,172.7902,81.37,78,100,6.62,KI,1619229493
barrow,71.2906,-156.7887,28.4,69,1,5.12,US,1619229616
puerto ayora,-0.7393,-90.3518,77.0,95,16,5.99,EC,1619229590
faanui,-16.4833,-151.75,80.02,74,100,10.56,PF,1619229617
coquimbo,-29.9533,-71.3436,57.2,77,75,3.44,CL,1619229617
shingu,33.7333,135.9833,64.4,63,75,2.3,JP,1619229618
terrace,54.5163,-128.6035,62.6,20,75,2.3,CA,1619229609
komoro,36.3167,138.4333,64.0,20,100,3.0,JP,1619229618
ushuaia,-54.8,-68.3,42.8,93,75,13.8,AR,1619229421
kamenka,51.3223,42.7678,41.0,95,99,8.23,RU,1619229619
mataura,-46.1927,168.8643,48.99,89,99,1.01,NZ,1619229619
tondi,9.7333,79.0167,85.41,66,100,4.9,IN,1619229619
san cristobal,7.7669,-72.225,84.2,65,20,2.3,VE,1619229362
cape town,-33.9258,18.4232,59.0,82,0,9.22,ZA,1619229607
maceio,-9.6658,-35.7353,73.4,100,0,3.44,BR,1619229449
east london,-33.0153,27.9116,62.29,75,3,7.09,ZA,1619229620
saint anthony,45.0205,-93.218,46.99,81,90,3.44,US,1619229621
bonthe,7.5264,-12.505,79.03,85,100,6.33,SL,1619229621
kjollefjord,70.9457,27.3465,31.77,69,99,17.13,NO,1619229622
talcahuano,-36.7167,-73.1167,55.4,94,0,3.44,CL,1619229622
esperance,-33.8667,121.9,62.6,72,100,12.66,AU,1619229622
pagudpud,18.5616,120.7868,82.4,69,40,3.44,PH,1619229623
chokurdakh,70.6333,147.9167,9.88,85,18,1.41,RU,1619229566
muros,42.7762,-9.0603,59.0,95,80,1.01,ES,1619229623
hermanus,-34.4187,19.2345,55.0,90,95,1.01,ZA,1619229583
gazimurskiy zavod,51.5461,118.3266,45.0,20,100,7.72,RU,1619229624
albany,42.6001,-73.9662,48.2,43,1,4.61,US,1619229474
wenceslau braz,-23.8739,-49.8028,55.44,70,0,3.69,BR,1619229625
talnakh,69.4865,88.3972,31.98,97,100,9.82,RU,1619229625
arraial do cabo,-22.9661,-42.0278,73.72,77,61,11.74,BR,1619229617
fukue,32.6881,128.8419,64.4,88,75,8.05,JP,1619229626
petatlan,17.5167,-101.2667,77.47,67,100,2.51,MX,1619229626
hamilton,39.1834,-84.5333,54.0,58,90,3.44,US,1619229377
busselton,-33.65,115.3333,71.6,48,31,5.35,AU,1619229495
souillac,-20.5167,57.5167,78.8,89,40,11.5,MU,1619229627
namibe,-15.1961,12.1522,77.22,80,23,5.53,AO,1619229581
bambanglipuro,-7.95,110.2833,82.4,67,0,3.76,ID,1619229627
muravlenko,63.7898,74.523,34.18,99,100,11.12,RU,1619229638
college,64.8569,-147.8028,57.99,23,20,6.91,US,1619229638
clyde river,70.4692,-68.5914,12.2,92,90,3.71,CA,1619229638
port alfred,-33.5906,26.891,64.92,73,0,15.73,ZA,1619229596
namatanai,-3.6667,152.4333,82.42,72,93,5.21,PG,1619229639
udachnyy,66.4167,112.4,33.8,99,33,9.86,RU,1619229639
naze,28.3667,129.4833,69.8,73,75,25.32,JP,1619229640
songjianghe,42.1859,127.479,60.19,51,90,8.12,CN,1619229640
saint-philippe,-21.3585,55.7679,77.0,73,20,16.11,RE,1619229640
bogalusa,30.791,-89.8487,68.0,83,90,9.22,US,1619229641
dingle,10.9995,122.6711,89.6,53,93,8.23,PH,1619229360
cidreira,-30.1811,-50.2056,70.16,81,1,16.6,BR,1619229641
beidao,34.5686,105.8933,48.99,38,100,5.01,CN,1619229642
longyearbyen,78.2186,15.6401,17.6,67,90,3.44,SJ,1619229642
dikson,73.5069,80.5464,31.86,98,100,15.35,RU,1619229563
sola,-13.8833,167.55,83.64,68,100,13.42,VU,1619229643
flinders,-34.5833,150.8552,70.0,54,100,4.0,AU,1619229643
geraldton,-28.7667,114.6,75.2,43,0,6.91,AU,1619229643
nuevo progreso,23.1667,-97.95,79.0,72,30,1.99,MX,1619229644
qaanaaq,77.484,-69.3632,17.8,81,100,5.08,GL,1619229455
ouadda,8.0777,22.4007,68.29,96,100,2.62,CF,1619229644
atuona,-9.8,-139.0333,80.38,78,23,23.85,PF,1619229589
tuktoyaktuk,69.4541,-133.0374,19.4,68,75,11.5,CA,1619229491
nurota,40.5614,65.6886,51.8,66,100,6.91,UZ,1619229645
pacific grove,36.6177,-121.9166,57.0,84,44,1.01,US,1619229646
naryan-mar,67.6713,53.087,32.11,87,57,1.97,RU,1619229646
karaidel,55.8337,56.9069,42.19,96,100,3.76,RU,1619229646
hithadhoo,-0.6,73.0833,82.45,70,17,5.1,MV,1619229607
paide,58.8856,25.5572,32.0,100,100,1.01,EE,1619229647
new norfolk,-42.7826,147.0587,59.0,76,96,1.99,AU,1619229567
lufkin,31.3382,-94.7291,66.2,100,90,8.05,US,1619229647
port elizabeth,-33.918,25.5701,57.2,94,0,5.75,ZA,1619229642
kodiak,57.79,-152.4072,41.0,81,90,11.5,US,1619229570
marzuq,14.4,46.4667,67.17,53,1,6.02,YE,1619229457
tura,25.5198,90.2201,84.97,25,1,5.12,IN,1619229648
hammerfest,70.6634,23.6821,30.2,69,75,10.36,NO,1619229649
ribeira grande,38.5167,-28.7,58.64,78,99,28.74,PT,1619229581
touros,-5.1989,-35.4608,80.6,83,40,5.75,BR,1619229649
avarua,-21.2078,-159.775,82.4,74,10,19.57,CK,1619229488
bonavista,48.6499,-53.1147,37.99,80,3,9.22,CA,1619229650
pevek,69.7008,170.3133,18.66,85,63,2.01,RU,1619229650
iqaluit,63.7506,-68.5145,28.4,93,90,3.44,CA,1619229613
khandyga,62.6667,135.6,25.68,68,19,6.33,RU,1619229650
liberty,31.8335,-81.5004,60.8,67,75,3.44,US,1619229651
knysna,-34.0363,23.0471,55.4,100,0,3.44,ZA,1619229651
hino,35.6731,139.4003,66.0,51,1,6.02,JP,1619229662
yellowknife,62.456,-114.3525,15.8,57,75,9.22,CA,1619229587
lingao,19.9103,109.6859,85.17,64,2,7.63,CN,1619229662
saldanha,-33.0117,17.9442,51.8,87,70,3.44,ZA,1619229663
hilo,19.7297,-155.09,78.8,65,90,16.11,US,1619229663
asau,46.4333,26.4,36.0,65,63,3.78,RO,1619229664
yerbogachen,61.2767,108.0108,37.44,68,19,8.75,RU,1619229664
miracatu,-24.2814,-47.4597,62.1,98,17,1.97,BR,1619229664
north battleford,52.7834,-108.2847,37.4,23,20,8.05,CA,1619229527
bereda,43.2686,-7.5406,55.0,100,95,5.01,ES,1619229665
morro bay,35.3658,-120.8499,55.0,89,27,1.01,US,1619229388
camacupa,-12.0167,17.4833,61.79,72,100,1.41,AO,1619229666
provideniya,64.3833,-173.3,39.97,59,13,4.5,RU,1619229666
tunceli,39.1083,39.5471,44.6,57,0,1.14,TR,1619229666
bongandanga,1.5,21.05,70.38,99,100,2.3,CD,1619229667
vanavara,60.34,102.2797,35.85,79,100,0.87,RU,1619229667
ulaanbaatar,47.9077,106.8832,46.4,29,40,11.18,MN,1619229450
vaini,-21.2,-175.2,86.0,74,20,6.91,TO,1619229604
sao joao da barra,-21.6403,-41.0511,69.24,87,0,7.76,BR,1619229668
sechura,-5.5569,-80.8222,71.44,70,9,16.64,PE,1619229668
nemuro,43.3236,145.575,62.6,36,0,13.8,JP,1619229669
isangel,-19.55,169.2667,86.0,70,75,5.75,VU,1619229669
carnarvon,-24.8667,113.6333,73.4,43,2,8.05,AU,1619229669
najran,17.4924,44.1277,69.8,21,86,2.77,SA,1619229670
tezu,27.9167,96.1667,87.37,19,3,1.66,IN,1619229670
port hedland,-20.3167,118.5667,89.6,14,0,20.71,AU,1619229670
saskylakh,71.9167,114.0833,33.57,97,100,20.42,RU,1619229671
eureka,40.8021,-124.1637,52.0,76,100,3.0,US,1619229671
tasiilaq,65.6145,-37.6368,37.4,60,75,20.71,GL,1619229672
port hardy,50.6996,-127.4199,51.8,76,90,4.61,CA,1619229634
ahuimanu,21.4447,-157.8378,82.4,61,40,14.97,US,1619229672
sturgeon bay,44.8342,-87.377,55.4,61,90,5.75,US,1619229574
altamira,-3.2033,-52.2064,72.9,97,96,1.36,BR,1619229673
sokoni,-6.4333,39.55,80.6,78,40,11.5,TZ,1619229673
sawtell,-30.3833,153.1,69.8,52,0,8.05,AU,1619229674
castro,-24.7911,-50.0119,53.46,78,9,3.98,BR,1619229605
henties bay,-22.116,14.2845,60.01,92,36,3.0,NA,1619229674
san joaquin,37.9333,-121.3011,68.0,48,1,20.71,US,1619229674
honiara,-9.4333,159.95,85.42,69,90,4.61,SB,1619229529
west bay,19.3667,-81.4167,80.6,78,0,5.75,KY,1619229675
coihaique,-45.5752,-72.0662,43.63,97,79,5.53,CL,1619229675
twin falls,42.3505,-114.6445,57.2,24,1,9.22,US,1619229676
grojec,51.8625,20.8676,33.01,100,0,8.81,PL,1619229642
mangrol,21.1167,70.1167,80.76,79,99,9.64,IN,1619229676
ukiah,39.1502,-123.2078,62.6,29,1,14.97,US,1619229677
nanlong,31.3533,106.0631,61.83,88,100,9.08,CN,1619229687
tambura,5.6,27.4667,70.05,83,45,4.68,SS,1619229687
bilibino,68.0546,166.4372,26.08,81,80,3.8,RU,1619229688
victoria,22.2855,114.1577,79.0,79,78,1.01,HK,1619229452
lichinga,-13.3128,35.2406,55.67,98,25,5.53,MZ,1619229688
prince rupert,54.3161,-130.3201,51.8,66,1,5.75,CA,1619229610
mossendjo,-2.9506,12.7261,69.58,99,100,1.41,CG,1619229689
esik,43.3552,77.4525,32.0,64,20,4.47,KZ,1619229689
madarounfa,13.3087,7.156,88.59,29,92,6.58,NE,1619229690
bredasdorp,-34.5322,20.0403,44.6,87,94,1.14,ZA,1619229488
nueva guinea,11.6876,-84.4562,72.66,84,16,6.73,NI,1619229690
boende,-0.2167,20.8667,71.55,98,100,3.04,CD,1619229691
hualmay,-11.0964,-77.6139,66.85,88,10,7.9,PE,1619229691
deep river,46.1001,-77.4995,53.6,37,1,4.61,CA,1619229691
severo-kurilsk,50.6789,156.125,38.07,86,98,6.64,RU,1619229692
talaya,61.3833,152.75,19.15,72,100,11.79,RU,1619229692
stornoway,58.2093,-6.3865,44.6,81,55,9.22,GB,1619229692
vila franca do campo,37.7167,-25.4333,57.2,72,40,11.5,PT,1619229693
itanhaem,-24.1831,-46.7889,73.99,88,75,4.61,BR,1619229693
karratha,-20.7377,116.8463,86.36,19,0,17.27,AU,1619229694
lavrentiya,65.5833,-171.0,33.35,82,2,3.8,RU,1619229694
brattleboro,42.8509,-72.5579,46.0,59,0,9.46,US,1619229694
nizhniy tsasuchey,50.5167,115.1333,45.72,14,97,4.7,RU,1619229695
torbay,47.6666,-52.7314,39.0,100,90,18.41,CA,1619229695
lebu,-37.6167,-73.65,52.45,91,79,7.38,CL,1619229695
mahebourg,-20.4081,57.7,78.8,89,40,11.5,MU,1619229431
faya,18.3851,42.4509,62.6,51,0,1.9,SA,1619229696
beyneu,45.3167,55.2,48.9,86,0,10.31,KZ,1619229696
chuy,-33.6971,-53.4616,65.28,88,3,9.73,UY,1619229696
santa maria,-29.6842,-53.8069,62.6,88,0,4.61,BR,1619229697
macon,39.8667,-88.9668,53.6,66,90,6.91,US,1619229697
necochea,-38.5473,-58.7368,60.01,97,100,5.53,AR,1619229697
ilulissat,69.2167,-51.1,28.4,74,100,4.61,GL,1619229698
nome,64.5011,-165.4064,44.6,49,1,5.75,US,1619229587
kerman,30.2832,57.0788,55.4,30,20,4.61,IR,1619229699
cap malheureux,-19.9842,57.6142,75.99,85,98,4.0,MU,1619229699
oktyabrskiy,54.4815,53.471,44.37,93,100,9.53,RU,1619229699
kesinga,20.2,83.2333,87.42,41,0,2.86,IN,1619229700
liverpool,53.4106,-2.9779,48.2,57,100,6.91,GB,1619229547
lac du bonnet,50.2536,-96.0612,30.99,90,100,8.99,CA,1619229700
lensk,60.7253,114.9278,37.63,86,80,11.77,RU,1619229701
ballina,-28.8667,153.5667,71.6,53,0,3.44,AU,1619229701
yeniseysk,58.4497,92.1703,39.18,69,100,3.71,RU,1619229711
bandarbeyla,9.4942,50.8122,82.38,74,80,4.41,SO,1619229712
saint george,37.1041,-113.5841,77.0,10,1,11.5,US,1619229712
seydi,39.4816,62.9137,69.75,15,98,5.88,TM,1619229712
winnetka,42.1081,-87.7359,57.2,44,75,8.05,US,1619229555
onguday,50.75,86.15,28.44,83,100,3.27,RU,1619229713
haines junction,60.7522,-137.5108,51.8,22,15,2.3,CA,1619229713
kalmunai,7.4167,81.8167,81.88,77,15,1.57,LK,1619229714
eyl,7.9803,49.8164,82.4,75,85,6.85,SO,1619229714
ormond beach,29.2858,-81.0559,70.0,64,90,6.91,US,1619229714
tiksi,71.6872,128.8694,16.84,81,100,14.03,RU,1619229715
port lincoln,-34.7333,135.8667,63.9,59,59,6.4,AU,1619229715
kupang,-10.1667,123.5833,84.65,64,2,6.82,ID,1619229715
beringovskiy,63.05,179.3167,29.52,88,99,5.12,RU,1619229716
pamanukan,-6.2842,107.8106,83.57,64,0,5.64,ID,1619229716
daru,-9.0763,143.2092,85.95,65,41,5.01,PG,1619229716
cabo san lucas,22.8909,-109.9124,75.99,50,20,4.61,MX,1619229717
umm kaddadah,13.6017,26.6876,77.74,18,43,2.33,SD,1619229717
sao jose da coroa grande,-8.8978,-35.1478,78.33,80,16,7.14,BR,1619229718
la orilla,17.9833,-102.2333,76.6,68,88,4.68,MX,1619229718
adrar,20.5022,-10.0711,76.14,14,2,9.06,MR,1619229718
egvekinot,66.3167,-179.1667,31.96,88,100,3.94,RU,1619229719
sobolevo,54.4299,31.8996,32.05,87,40,5.37,RU,1619229719
ancud,-41.8697,-73.8203,48.99,93,0,3.44,CL,1619229719
isiro,2.7739,27.616,64.58,99,100,2.35,CD,1619229720
ceres,37.5949,-120.9577,73.4,35,1,4.61,US,1619229720
providencia,28.7167,-111.5833,72.0,51,0,5.99,MX,1619229720
riberalta,-10.9833,-66.1,73.56,96,7,2.19,BO,1619229721
hambantota,6.1241,81.1185,80.92,77,9,5.23,LK,1619229721
sitka,57.0531,-135.33,60.8,21,20,4.61,US,1619229722
kirakira,-10.4544,161.9205,84.31,71,60,4.9,SB,1619229722
bethel,41.3712,-73.414,57.2,24,1,4.61,US,1619229722
porto novo,6.4965,2.6036,80.47,86,100,6.33,BJ,1619229679
san patricio,28.017,-97.5169,78.8,89,40,17.27,US,1619229723
baneh,35.9975,45.8853,50.2,29,85,2.01,IR,1619229723
kavieng,-2.5744,150.7967,80.47,79,95,4.23,PG,1619229723
la ronge,55.1001,-105.2842,30.2,34,80,9.22,CA,1619229724
poum,-20.2333,164.0167,79.86,76,98,6.04,NC,1619229724
numan,9.4667,12.0333,83.19,52,100,9.28,NG,1619229725
kachiry,53.0675,76.1036,39.27,59,2,5.97,KZ,1619229725
haapiti,-17.5667,-149.8667,82.4,74,40,10.36,PF,1619229725
burgersdorp,-30.9977,26.3286,46.53,77,0,2.01,ZA,1619229726
makarov,48.6333,142.8,32.85,96,100,4.05,RU,1619229726
tiznit,29.5833,-9.5,59.14,83,100,6.8,MA,1619229726
kieta,-6.2167,155.6333,84.24,67,61,5.08,PG,1619229727
shalakusha,62.2247,40.2539,44.87,93,100,7.65,RU,1619229727
dori,14.0354,-0.0345,90.48,8,72,8.14,BF,1619229738
harlingen,26.1906,-97.6961,81.0,78,90,18.41,US,1619229614
mitu,1.1983,-70.1733,73.2,97,100,0.34,CO,1619229673
miri,4.4148,114.0089,86.0,70,20,6.91,MY,1619229572
peleduy,59.6289,112.7406,35.83,93,96,8.25,RU,1619229738
batticaloa,7.7102,81.6924,81.73,76,8,1.57,LK,1619229739
ogembo,-0.7984,34.7253,59.36,95,96,3.65,KE,1619229739
margate,51.3813,1.3862,46.99,76,86,1.99,GB,1619229739
lompoc,34.6391,-120.4579,57.2,67,4,13.8,US,1619229497
luderitz,-26.6481,15.1594,63.52,74,4,7.56,NA,1619229740
luanda,-8.8368,13.2343,75.2,88,40,3.44,AO,1619229463
nanortalik,60.1432,-45.2371,35.4,89,9,4.29,GL,1619229740
shirvan,39.9509,48.8994,52.3,81,6,2.51,AZ,1619229741
fort nelson,58.8053,-122.7002,37.4,38,40,6.91,CA,1619229741
mbalmayo,3.5167,11.5,68.9,98,100,1.36,CM,1619229741
cherskiy,68.75,161.3,26.83,88,100,4.9,RU,1619229742
kiruna,67.8557,20.2251,26.6,74,90,13.8,SE,1619229742
bone,51.9669,12.1396,37.99,77,89,6.46,DE,1619229742
tocopilla,-22.092,-70.1979,64.9,74,6,4.79,CL,1619229743
heihe,50.2441,127.4902,48.2,21,20,15.66,CN,1619229743
voyskovitsy,59.5287,29.964,32.0,93,75,4.47,RU,1619229743
bilma,18.6853,12.9164,84.96,11,0,9.06,NE,1619229744
nikolskoye,59.7035,30.7861,36.0,93,75,4.47,RU,1619229499
camopi,3.1655,-52.3158,72.9,99,100,1.59,GF,1619229744
georgetown,5.4112,100.3354,78.8,94,40,3.44,MY,1619229531
klaksvik,62.2266,-6.589,42.8,100,90,6.91,FO,1619229745
hasaki,35.7333,140.8333,68.0,45,75,3.44,JP,1619229480
angola,-12.5,18.5,58.51,81,92,2.17,AO,1619229745
diamantino,-14.4086,-56.4461,78.31,69,100,2.77,BR,1619229611
batagay-alyta,67.8006,130.4114,17.24,71,18,4.25,RU,1619229732
te anau,-45.4167,167.7167,50.94,72,100,4.76,NZ,1619229746
berlevag,70.8578,29.0864,33.26,76,100,17.18,NO,1619229746
changping,40.2186,116.2197,70.0,52,0,4.47,CN,1619229747
tilichiki,60.4667,166.1,28.81,86,28,1.99,RU,1619229747
norman wells,65.282,-126.8329,35.6,32,75,9.22,CA,1619229747
dakar,14.6937,-17.4441,68.0,88,75,13.8,SN,1619229748
suihua,46.6406,126.9969,48.11,18,99,16.2,CN,1619229748
xiuyan,40.2928,123.2744,65.97,46,60,8.3,CN,1619229748
pitimbu,-7.4706,-34.8086,77.0,88,0,4.61,BR,1619229749
lufilufi,-13.8745,-171.5986,89.6,70,75,3.44,WS,1619229749
bakchar,57.0186,82.0711,36.03,77,20,2.82,RU,1619229749
araguaina,-7.1911,-48.2072,73.96,92,91,1.34,BR,1619229614
kavaratti,10.5669,72.642,84.33,68,40,5.46,IN,1619229487
taoudenni,22.6783,-3.9836,86.63,7,0,8.41,ML,1619229750
ponta do sol,32.6667,-17.1,59.0,79,21,5.99,PT,1619229750
kjustendil,42.2839,22.6911,41.0,89,98,3.62,BG,1619229740
susanville,40.4163,-120.653,64.4,20,1,14.97,US,1619229751
grand gaube,-20.0064,57.6608,75.99,85,98,4.0,MU,1619229690
lorengau,-2.0226,147.2712,81.14,80,90,6.96,PG,1619229751
bengkulu,-3.8004,102.2655,80.22,73,100,2.15,ID,1619229752
nedryhayliv,50.834,33.8763,36.48,89,8,8.9,UA,1619229762
evensk,61.95,159.2333,31.03,94,100,10.87,RU,1619229762
palauig,15.435,119.9045,84.06,62,18,7.96,PH,1619229763
mar del plata,-38.0023,-57.5575,66.2,72,90,6.91,AR,1619229506
mount isa,-20.7333,139.5,82.4,30,22,13.8,AU,1619229652
zhifang,30.35,114.3167,60.8,88,100,11.18,CN,1619229763
prince george,53.9166,-122.753,51.01,23,20,11.5,CA,1619229734
yumen,40.2833,97.2,44.33,59,95,0.6,CN,1619229712
paamiut,61.994,-49.6678,32.11,77,2,4.52,GL,1619229764
tongliao,43.6125,122.2653,50.04,47,100,17.07,CN,1619229764
roald,62.5833,6.1333,33.8,86,40,3.44,NO,1619229765
kamen-rybolov,44.7481,132.0403,40.1,81,100,13.58,RU,1619229765
zhigansk,66.7697,123.3711,22.17,75,100,6.93,RU,1619229765
kununurra,-15.7667,128.7333,86.0,23,14,14.97,AU,1619229646
gazojak,41.1875,61.4036,67.33,23,90,10.18,TM,1619229766
wanning,18.8003,110.3967,83.46,70,7,11.7,CN,1619229766
sibolga,1.7427,98.7792,80.71,77,99,1.19,ID,1619229767
irati,-25.4672,-50.6511,55.31,74,51,1.14,BR,1619229767
iquitos,-3.7481,-73.2472,77.0,94,40,1.14,PE,1619229767
solnechnyy,50.7214,136.6319,42.39,51,60,8.37,RU,1619229480
baherden,38.4362,57.4316,65.71,58,68,4.43,TM,1619229768
deputatskiy,69.3,139.9,12.92,79,9,2.77,RU,1619229768
coos bay,43.3665,-124.2179,52.0,71,90,8.05,US,1619229769
ixtapa,20.7,-105.2,78.8,69,20,8.05,MX,1619229769
moose factory,51.2585,-80.6094,37.4,86,75,14.97,CA,1619229759
camacha,33.0833,-16.3333,62.6,72,40,17.27,PT,1619229769
skjervoy,70.0311,20.9714,33.46,65,100,8.34,NO,1619229770
ponta delgada,37.7333,-25.6667,57.2,72,40,11.5,PT,1619229770
port blair,11.6667,92.75,84.54,58,100,3.56,IN,1619229770
pietarsaari,63.65,22.6833,34.0,100,75,5.75,FI,1619229771
kahului,20.8947,-156.47,82.4,51,20,23.02,US,1619229771
northam,51.0333,-4.2167,48.99,63,35,1.01,GB,1619229771
ternate,0.8,127.4,84.16,73,20,7.52,ID,1619229772
pangody,65.85,74.4859,33.87,99,100,9.64,RU,1619229772
sorland,67.667,12.6934,36.54,54,98,21.45,NO,1619229773
pompeu,-19.2244,-44.9353,62.64,61,0,3.36,BR,1619229773
bambous virieux,-20.3428,57.7575,78.8,89,40,11.5,MU,1619229773
mukhen,48.1,136.1,45.46,64,100,5.86,RU,1619229774
vao,-22.6667,167.4833,75.92,74,57,11.14,NC,1619229774
verkhoyansk,67.5447,133.385,19.78,73,31,3.8,RU,1619229774
chhatak,25.0333,91.6667,84.18,31,0,7.23,BD,1619229775
salinopolis,-0.6136,-47.3561,78.42,87,100,7.87,BR,1619229775
kihei,20.785,-156.4656,82.4,51,20,23.02,US,1619229484
krasnoselkup,65.7,82.4667,32.49,93,97,16.93,RU,1619229776
pangnirtung,66.1451,-65.7125,31.71,88,100,6.42,CA,1619229776
puerto colombia,10.9878,-74.9547,80.6,78,0,11.5,CO,1619229776
russell,32.3502,-85.1999,66.2,67,20,5.61,US,1619229610
kutum,14.2,24.6667,76.86,17,62,9.15,SD,1619229787
chachapoyas,-6.2317,-77.869,53.96,97,86,1.63,PE,1619229787
caohai,26.8661,104.2841,63.82,60,50,6.69,CN,1619229788
moron,-34.6534,-58.6198,64.99,98,100,5.01,AR,1619229788
cayenne,4.9333,-52.3333,78.01,100,75,3.44,GF,1619229678
moerai,-22.4333,-151.3333,77.04,71,100,16.46,PF,1619229788
topolobampo,25.6,-109.05,73.99,46,1,11.5,MX,1619229789
yulara,-25.2406,130.9889,69.8,37,0,16.11,AU,1619229675
filingue,14.3521,3.3168,87.3,6,54,12.44,NE,1619229789
melfi,40.9965,15.6514,48.0,87,90,18.41,IT,1619229790
kirchlinteln,52.95,9.3167,37.4,93,20,5.75,DE,1619229790
byron bay,-28.65,153.6167,71.6,53,0,3.44,AU,1619229790
vestmannaeyjar,63.4427,-20.2734,46.2,91,100,17.25,IS,1619229752
harper,4.375,-7.7169,80.62,83,84,7.9,LR,1619229791
fortuna,40.5982,-124.1573,53.01,93,1,8.05,US,1619229791
zhicheng,30.2956,111.5047,57.0,96,100,14.12,CN,1619229792
shetpe,44.1667,52.1167,49.6,82,3,5.08,KZ,1619229792
itupiranga,-5.1347,-49.3267,73.51,95,52,1.74,BR,1619229792
saint-pierre,-21.3393,55.4781,77.0,73,20,16.11,RE,1619229706
guerrero negro,27.9769,-114.0611,59.49,76,1,19.82,MX,1619229727
baruun-urt,46.6806,113.2792,45.95,25,99,14.09,MN,1619229793
moche,-8.1711,-79.0092,66.96,88,13,7.36,PE,1619229793
eydhafushi,5.1033,73.0708,83.48,72,53,9.55,MV,1619229794
asfi,32.2994,-9.2372,63.91,89,70,6.08,MA,1619229794
tayoltita,24.0833,-105.9333,63.41,40,62,2.62,MX,1619229794
serang,-6.1149,106.1502,86.0,62,0,4.61,ID,1619229587
shelburne,44.0787,-80.2041,53.6,37,52,3.44,CA,1619229795
dunedin,-45.8742,170.5036,55.99,82,100,5.99,NZ,1619229795
medea,36.2642,2.7539,53.6,87,20,8.05,DZ,1619229795
baykit,61.67,96.37,35.98,82,91,0.92,RU,1619229796
paita,-5.0892,-81.1144,70.83,75,12,15.84,PE,1619229796
shwebo,22.5667,95.7,92.89,20,99,5.5,MM,1619229796
luwuk,-0.9516,122.7875,82.51,78,89,3.49,ID,1619229797
mount gambier,-37.8333,140.7667,57.2,94,75,12.66,AU,1619229797
abha,18.2164,42.5053,62.6,51,0,1.83,SA,1619229797
constitucion,-35.3333,-72.4167,55.0,79,0,10.09,CL,1619229798
manokwari,-0.8667,134.0833,82.11,77,67,4.07,ID,1619229798
araouane,18.9048,-3.5265,85.42,11,6,6.53,ML,1619229798
hobyo,5.3505,48.5268,82.94,73,95,8.16,SO,1619229681
codrington,-38.2667,141.9667,60.66,70,90,13.33,AU,1619229600
vanderhoof,54.0166,-124.0198,47.98,38,42,6.93,CA,1619229610
the valley,18.217,-63.0578,79.0,78,20,6.91,AI,1619229799
morondava,-20.2833,44.2833,74.3,79,0,6.17,MG,1619229800
tampakan,6.4442,124.9264,87.8,62,20,5.75,PH,1619229800
verkhniy baskunchak,48.2256,46.7217,48.34,83,100,9.82,RU,1619229800
cabinda,-5.55,12.2,78.01,89,53,2.17,AO,1619229801
san carlos de bariloche,-41.1456,-71.3082,48.2,57,40,9.22,AR,1619229772
waingapu,-9.6567,120.2641,83.39,71,0,8.86,ID,1619229801
taltal,-25.4,-70.4833,62.02,82,2,2.98,CL,1619229801
petropavlovsk-kamchatskiy,53.0452,158.6483,41.0,81,88,6.71,RU,1619229812
lazaro cardenas,17.9583,-102.2,77.18,67,91,4.81,MX,1619229812
kurumkan,54.3,110.3,38.23,37,100,4.61,RU,1619229812
alihe,50.5667,123.7167,48.51,19,0,6.85,CN,1619229813
lodja,-3.4833,23.4333,68.5,99,100,2.82,CD,1619229813
abulug,18.4453,121.4533,81.19,67,14,8.77,PH,1619229814
zomba,-15.386,35.3188,57.94,94,0,2.28,MW,1619229814
sao filipe,14.8961,-24.4956,71.06,75,7,7.61,CV,1619229680
puerto escondido,15.85,-97.0667,82.4,78,40,3.78,MX,1619229814
sena madureira,-9.0656,-68.6569,73.31,95,84,2.64,BR,1619229815
vung tau,10.346,107.0843,82.92,70,45,6.06,VN,1619229815
bathsheba,13.2167,-59.5167,78.8,65,20,17.27,BB,1619229815
ovsyanka,55.9575,92.5519,37.4,32,0,8.95,RU,1619229816
san quintin,30.4833,-115.95,58.98,76,21,15.39,MX,1619229816
olinda,-8.0089,-34.8553,78.8,73,20,6.91,BR,1619229817
bulgan,48.8125,103.5347,30.38,91,100,5.75,MN,1619229817
harnosand,62.6323,17.9379,36.0,55,75,19.57,SE,1619229817
fairborn,39.8209,-84.0194,51.8,53,90,6.58,US,1619229815
warri,5.5167,5.75,78.06,90,100,3.69,NG,1619229818
liwale,-9.7667,37.9333,69.26,89,87,7.02,TZ,1619229818
aklavik,68.2191,-135.0107,37.4,44,94,2.3,CA,1619229819
azul,-36.777,-59.8585,59.95,95,100,3.74,AR,1619229666
katsuura,35.1333,140.3,66.99,59,75,6.91,JP,1619229598
puerto madryn,-42.7692,-65.0385,55.31,61,0,14.85,AR,1619229820
tahta,26.7693,31.5021,69.8,30,0,4.61,EG,1619229820
leeton,-34.5667,146.4,64.99,48,90,6.91,AU,1619229821
chatra,24.2167,84.8667,71.6,43,20,9.71,IN,1619229821
yambio,4.5721,28.3955,66.78,97,76,3.83,SS,1619229821
amazar,53.858,120.875,46.6,28,2,6.29,RU,1619229822
arkhangelsk,64.5401,40.5433,46.4,81,40,6.71,RU,1619229822
avera,33.194,-82.5271,57.2,58,1,3.44,US,1619229822
quelimane,-17.8786,36.8883,73.4,83,0,2.3,MZ,1619229823
inhambane,-23.865,35.3833,65.88,88,87,4.34,MZ,1619229823
kawalu,-7.3817,108.2082,80.35,69,0,2.64,ID,1619229823
khatanga,71.9667,102.5,33.26,96,100,19.64,RU,1619229824
kruisfontein,-34.0033,24.7314,59.0,93,93,1.99,ZA,1619229824
awbari,26.5921,12.7805,77.25,15,9,7.94,LY,1619229824
yar-sale,66.8333,70.8333,31.78,99,97,9.31,RU,1619229825
kiunga,-6.1219,141.2906,91.63,56,25,1.79,PG,1619229825
aleppo,36.25,37.5,64.65,26,75,6.69,SY,1619229825
bac lieu,9.285,105.7244,86.22,62,75,7.31,VN,1619229826
bentiu,9.2333,29.8333,83.21,48,5,4.0,SS,1619229826
laurens,32.4502,-82.9165,63.0,58,1,7.81,US,1619229827
cassilandia,-19.1133,-51.7342,65.59,50,2,1.54,BR,1619229827
atikokan,48.7555,-91.6216,33.4,96,100,7.27,CA,1619229827
port macquarie,-31.4333,152.9167,73.99,45,17,1.01,AU,1619229828
ketchikan,55.3422,-131.6461,55.4,38,1,5.75,US,1619229828
kijang,35.2442,129.2139,68.0,49,0,8.05,KR,1619229838
tongchuan,35.0806,109.0897,52.16,89,100,14.18,CN,1619229839
broken hill,-31.95,141.4333,64.4,45,84,5.75,AU,1619229839
masallatah,32.6167,14.0,58.68,84,100,19.33,LY,1619229839
pahalgam,34.0333,75.3333,34.03,60,0,9.71,IN,1619229840
requena,39.4883,-1.1004,55.0,84,100,6.22,ES,1619229840
lerwick,60.1545,-1.1494,44.6,87,75,1.14,GB,1619229627
san ignacio,17.1561,-89.0714,82.4,61,0,6.91,BZ,1619229841
hokitika,-42.7167,170.9667,58.84,70,43,6.73,NZ,1619229841
tessalit,20.1986,1.0114,83.88,8,0,6.69,ML,1619229841
raga,8.4596,25.678,76.75,53,70,6.2,SS,1619229842
biak,-0.9131,122.8766,80.26,77,90,3.31,ID,1619229842
marsa matruh,31.3525,27.2453,57.2,88,40,8.19,EG,1619229709
grand island,40.925,-98.342,55.99,44,1,14.97,US,1619229843
soligalich,59.0778,42.2864,43.39,88,31,9.04,RU,1619229843
gizycko,54.0381,21.7644,30.45,80,35,6.13,PL,1619229843
owatonna,44.0839,-93.226,48.2,81,90,4.61,US,1619229844
kenora,49.8167,-94.4337,32.0,47,75,8.05,CA,1619229716
artesia,33.8658,-118.0831,63.0,67,75,4.61,US,1619229665
meulaboh,4.1363,96.1285,79.77,80,100,3.65,ID,1619229844
ocampo,21.65,-101.5,67.03,19,99,12.35,MX,1619229845
oga,46.4631,10.347,42.01,80,0,1.14,IT,1619229845
axim,4.8699,-2.2405,81.77,80,100,7.47,GH,1619229567
narsaq,60.9167,-46.05,39.2,65,0,2.3,GL,1619229633
assiniboia,49.6334,-105.9845,35.6,20,80,4.61,CA,1619229721
nelson bay,-32.7167,152.15,70.0,52,28,4.61,AU,1619229846
alofi,-19.0595,-169.9187,86.0,70,32,9.22,NU,1619229661
tanete,-3.9443,119.7848,86.05,66,13,4.79,ID,1619229846
westport,41.1415,-73.3579,53.6,47,1,8.05,US,1619229847
leningradskiy,69.3833,178.4167,29.35,85,96,5.66,RU,1619229575
huilong,31.8111,121.655,66.99,90,100,8.59,CN,1619229847
hovd,48.0056,91.6419,35.46,20,3,4.29,MN,1619229847
inuvik,68.3499,-133.7218,37.4,44,99,2.3,CA,1619229848
ambilobe,-13.2,49.05,70.41,86,73,3.15,MG,1619229848
upernavik,72.7868,-56.1549,27.95,86,100,4.99,GL,1619229849
hofn,64.2539,-15.2082,44.65,78,100,5.01,IS,1619229655
pakisaji,-8.0665,112.5981,82.36,60,4,2.24,ID,1619229849
saint paul,44.9444,-93.0933,48.2,81,90,3.44,US,1619229816
catamarca,-28.4696,-65.7852,61.0,83,100,1.99,AR,1619229645
sabanagrande,10.7912,-74.7606,80.6,78,0,11.5,CO,1619229721
grindavik,63.8424,-22.4338,46.4,93,75,11.5,IS,1619229850
onverwacht,5.5833,-55.1833,79.0,100,40,3.44,SR,1619229850
mahon,39.8885,4.2658,53.6,87,20,4.61,ES,1619229851
come,6.4076,1.882,81.03,83,100,7.38,BJ,1619229851
rudnya,54.947,31.0934,30.69,93,26,7.09,RU,1619229851
vardo,70.3705,31.1107,34.75,65,100,13.91,NO,1619229852
tarauaca,-8.1614,-70.7656,73.17,97,12,2.75,BR,1619229852
rundu,-17.9333,19.7667,56.41,49,0,4.88,NA,1619229722
cali,3.4372,-76.5225,69.8,94,75,1.68,CO,1619229612
trincomalee,8.5711,81.2335,80.69,80,2,4.09,LK,1619229863
ambon,-3.6954,128.1814,78.8,89,40,10.36,ID,1619229863
narwar,25.65,77.9,79.68,32,98,10.31,IN,1619229864
lokoja,7.8024,6.743,79.47,82,100,6.33,NG,1619229864
hervey bay,-25.2986,152.8535,75.99,60,14,4.0,AU,1619229864
mehamn,71.0357,27.8492,31.69,70,99,15.84,NO,1619229865
sokolo,14.7328,-6.1219,90.57,21,39,6.06,ML,1619229865
vostok,46.4856,135.8833,35.62,97,100,3.31,RU,1619229865
rocha,-34.4833,-54.3333,62.11,96,69,8.12,UY,1619229717
gawler,-34.6,138.7333,64.99,74,42,7.27,AU,1619229866
chara,56.9064,118.2631,32.16,76,20,5.19,RU,1619229866
panguna,-6.3164,155.4848,81.79,58,64,4.32,PG,1619229867
lipari,38.4674,14.954,55.99,93,100,11.01,IT,1619229867
trairi,-3.2778,-39.2689,75.88,92,71,6.24,BR,1619229867
srednekolymsk,67.45,153.6833,15.46,91,100,19.98,RU,1619229576
sinnamary,5.3833,-52.95,77.54,89,100,12.82,GF,1619229864
mananjary,-21.2167,48.3333,70.74,93,71,6.78,MG,1619229868
qaqortoq,60.7167,-46.0333,39.2,65,0,2.3,GL,1619229868
olafsvik,64.8945,-23.7142,43.48,93,100,11.81,IS,1619229859
plougastel-daoulas,48.3667,-4.3667,57.2,41,0,11.5,FR,1619229869
raciborz,50.0919,18.2193,39.99,80,92,4.61,PL,1619229869
turayf,31.6725,38.6637,69.8,28,0,11.5,SA,1619229869
esterhazy,50.65,-102.0843,35.6,23,54,4.61,CA,1619229870
conde,-7.2597,-34.9075,77.0,88,40,3.44,BR,1619229870
guaraniacu,-25.1008,-52.8781,59.86,76,63,1.48,BR,1619229871
kaeo,-35.1,173.7833,72.0,60,4,5.01,NZ,1619229871
ipojuca,-8.3989,-35.0639,78.8,73,20,6.91,BR,1619229871
labuhan,-6.8844,112.2051,82.31,70,2,4.99,ID,1619229872
port augusta,-32.5,137.7667,66.2,59,0,8.05,AU,1619229872
catia la mar,10.6038,-67.0303,78.8,69,40,10.6,VE,1619229872
ekibastuz,51.6667,75.3667,39.13,46,6,5.01,KZ,1619229833
svarstad,59.399,9.9698,32.0,11,6,3.87,NO,1619229873
mandalgovi,45.7625,106.2708,45.48,40,100,29.53,MN,1619229873
pochutla,15.7432,-96.4661,82.0,74,100,4.0,MX,1619229874
sept-iles,50.2001,-66.3821,34.0,100,90,3.44,CA,1619229806
honningsvag,70.9821,25.9704,32.61,62,95,17.38,NO,1619229874
makat,47.6469,53.3463,46.13,92,0,10.54,KZ,1619229875
mehriz,31.5917,54.4318,75.2,22,0,4.61,IR,1619229875
lata,40.1629,-8.3327,60.01,94,40,3.44,PT,1619229875
nishihara,26.1842,127.7558,69.8,94,90,17.27,JP,1619229876
atar,20.5169,-13.0499,77.5,15,0,6.6,MR,1619229876
vila,42.0304,-8.1588,54.0,94,100,4.25,PT,1619229876
guane,22.2025,-84.0875,75.58,81,42,4.14,CU,1619229877
carballo,43.213,-8.691,57.99,90,98,1.01,ES,1619229877
manati,18.4275,-66.4921,75.99,87,34,5.01,PR,1619229887
skibbereen,51.55,-9.2667,48.2,61,40,13.8,IE,1619229888
wewak,-3.5534,143.6268,81.27,81,100,4.03,PG,1619229888
jiaocheng,24.6774,116.1389,80.44,58,68,4.29,CN,1619229888
normandin,48.8333,-72.5321,44.6,45,0,6.91,CA,1619229889
sao miguel do araguaia,-13.275,-50.1628,72.59,60,30,2.95,BR,1619229889
oranjestad,12.524,-70.027,80.6,78,20,21.85,AW,1619229889
maragogi,-9.0122,-35.2225,78.01,81,24,7.27,BR,1619229748
zeya,53.75,127.2667,41.83,31,35,15.01,RU,1619229890
chimore,-16.9833,-65.1333,71.13,98,90,1.81,BO,1619229890
nesna,66.1967,13.0213,35.58,64,35,12.3,NO,1619229891
edd,13.9297,41.6925,85.95,53,87,12.86,ER,1619229891
zhangjiakou,40.81,114.8794,61.74,50,6,9.19,CN,1619229892
shache,38.4167,77.2406,56.28,13,1,5.61,CN,1619229892
seybaplaya,19.65,-90.6667,87.8,42,1,11.5,MX,1619229892
megion,61.0296,76.1136,37.4,52,40,6.71,RU,1619229893
pisco,-13.7,-76.2167,66.99,82,0,3.44,PE,1619229893
krabi,8.0726,98.9105,84.99,100,20,2.3,TH,1619229893
puerto del rosario,28.5004,-13.8627,68.0,68,20,3.44,ES,1619229894
celestun,20.8667,-90.4,86.9,47,96,13.24,MX,1619229817
capaci,38.1711,13.2393,57.2,94,75,14.97,IT,1619229894
la roche-sur-yon,46.6667,-1.4333,53.6,50,0,12.66,FR,1619229894
beruwala,6.4788,79.9828,81.3,78,12,1.66,LK,1619229895
birjand,32.8663,59.2211,51.8,20,0,6.91,IR,1619229895
aguacatan,15.3431,-91.3117,68.0,56,0,0.63,GT,1619229895
muzaffargarh,30.0754,71.1921,66.2,55,0,5.17,PK,1619229728
bairiki,1.3292,172.9752,87.8,70,20,8.05,KI,1619229896
maymyo,22.0333,96.4667,89.6,62,20,8.05,MM,1619229896
tazovskiy,67.4667,78.7,33.49,99,100,11.16,RU,1619229897
itoman,26.1247,127.6694,69.8,88,75,14.97,JP,1619229897
samana,19.2056,-69.3369,75.79,86,8,8.81,DO,1619229897
logansport,40.7545,-86.3567,52.0,66,90,7.36,US,1619229599
nalut,30.3333,10.85,58.44,62,40,14.97,LY,1619229898
rock sound,24.9,-76.2,76.14,74,99,17.05,BS,1619229898
kaset sombun,16.2805,101.9542,89.42,55,96,2.86,TH,1619229899
padang,-0.9492,100.3543,82.4,74,20,2.3,ID,1619229899
znamenskoye,57.1281,73.8282,37.49,60,100,6.91,RU,1619229900
can,40.0333,27.0524,60.8,63,75,13.8,TR,1619229900
bismarck,46.8083,-100.7837,39.2,38,20,6.91,US,1619229602
mutsu,41.2894,141.2169,51.8,82,75,6.91,JP,1619229901
ishigaki,24.3448,124.1572,77.0,69,20,20.71,JP,1619229901
harbour breton,47.4833,-55.7983,37.06,84,98,24.11,CA,1619229901
kalengwa,-13.4659,25.0027,59.54,80,53,4.7,ZM,1619229903
calabozo,8.9242,-67.4293,91.09,33,91,4.79,VE,1619229903
rio gallegos,-51.6226,-69.2181,50.0,71,90,4.61,AR,1619229914
narok,-1.0783,35.8601,55.67,95,75,3.98,KE,1619229914
kysyl-syr,63.8986,122.7617,25.68,81,94,5.73,RU,1619229914
lahij,13.1667,44.5833,71.29,85,3,4.81,YE,1619229915
hornepayne,49.2138,-84.7705,40.21,95,100,3.18,CA,1619229915
saint-francois,46.4154,3.9054,44.01,75,0,3.94,FR,1619229916
chopda,21.25,75.3,83.05,41,44,7.36,IN,1619229916
saint-louis,16.3333,-15.0,74.86,36,47,12.55,SN,1619229916
labrea,-7.2586,-64.7981,74.19,95,72,2.04,BR,1619229917
snezhnogorsk,69.1933,33.2531,30.2,100,75,8.95,RU,1619229917
shitanjing,39.2342,106.3439,49.19,84,100,13.65,CN,1619229917
pringsewu,-5.3582,104.9744,82.31,70,43,5.41,ID,1619229918
husavik,66.0449,-17.3389,41.0,81,0,1.14,IS,1619229918
lucapa,-8.4192,20.7447,65.43,97,100,2.75,AO,1619229918
tiarei,-17.5333,-149.3333,82.4,74,40,8.05,PF,1619229919
havoysund,70.9963,24.6622,30.2,69,90,11.5,NO,1619229919
rongcheng,30.634,117.8517,67.06,81,100,7.67,CN,1619229919
bisert,56.8617,59.0523,41.2,97,100,5.44,RU,1619229920
