,City,Lat,Lng,Max Temp.,Humidity,Cloudiness,Wind Speed,Country,Date
0,ushuaia,-54.8,-68.3,41.0,81,75,10.36,AR,1619153035
1,mecca,21.4267,39.8261,87.51,29,18,4.68,SA,1619152493
2,cidreira,-30.1811,-50.2056,69.51,74,10,17.2,BR,1619152493
3,kodiak,57.79,-152.4072,42.8,87,90,10.36,US,1619152493
4,bluff,-46.6,168.3333,52.0,93,100,3.0,NZ,1619152208
5,port alfred,-33.5906,26.891,66.38,80,1,20.38,ZA,1619152494
6,rikitea,-23.1203,-134.9692,78.01,78,100,14.88,PF,1619152736
7,hermanus,-34.4187,19.2345,55.0,95,0,1.99,ZA,1619152494
8,banda aceh,5.5577,95.3222,86.4,65,99,12.48,ID,1619152495
9,avarua,-21.2078,-159.775,80.6,74,75,17.27,CK,1619153036
10,belmonte,-15.8631,-38.8828,73.4,88,75,4.61,BR,1619152495
11,nueva loja,0.0847,-76.8828,71.04,93,63,2.24,EC,1619152495
12,hobart,-42.8794,147.3294,57.2,54,75,9.22,AU,1619153037
13,atuona,-9.8,-139.0333,80.08,81,89,21.63,PF,1619152496
14,zhangye,38.9342,100.4517,61.7,23,91,21.92,CN,1619152496
15,bambous virieux,-20.3428,57.7575,77.0,94,75,11.5,MU,1619152236
16,tuatapere,-46.1333,167.6833,52.0,93,100,3.0,NZ,1619152497
17,monrovia,6.3005,-10.7969,73.4,94,75,6.4,LR,1619152497
18,punta arenas,-53.15,-70.9167,46.4,93,90,5.75,CL,1619152800
19,saint-philippe,-21.3585,55.7679,78.8,73,20,11.5,RE,1619153038
20,tuktoyaktuk,69.4541,-133.0374,10.4,79,20,1.97,CA,1619152718
21,butaritari,3.0707,172.7902,83.12,72,75,8.77,KI,1619153038
22,bredasdorp,-34.5322,20.0403,51.8,93,3,4.61,ZA,1619152800
23,ossora,59.2353,163.0719,32.27,93,75,3.33,RU,1619152801
24,ulladulla,-35.35,150.4667,71.6,30,0,5.75,AU,1619152801
25,tasiilaq,65.6145,-37.6368,30.2,55,90,3.44,GL,1619152802
26,cape town,-33.9258,18.4232,57.2,94,20,10.36,ZA,1619152519
27,georgetown,5.4112,100.3354,87.8,70,20,3.44,MY,1619152802
28,pareora,-44.4871,171.2132,61.0,77,100,11.05,NZ,1619152802
29,xinyang,32.1228,114.0656,68.47,66,95,9.95,CN,1619152803
30,sobolevo,54.4299,31.8996,42.98,80,100,9.08,RU,1619152804
31,lukovetskiy,64.2956,41.9211,37.4,87,75,4.47,RU,1619152804
32,saint-augustin,51.226,-58.6502,35.62,90,98,19.66,CA,1619152805
33,mataura,-46.1927,168.8643,52.0,93,100,3.0,NZ,1619152606
34,seoul,37.5683,126.9778,71.6,24,0,12.66,KR,1619152662
35,kavaratti,10.5669,72.642,83.8,67,14,4.41,IN,1619152759
36,thompson,55.7435,-97.8558,17.6,62,90,12.66,CA,1619152805
37,joniskelis,56.0253,24.1689,35.6,93,75,11.5,LT,1619152806
38,coquimbo,-29.9533,-71.3436,59.0,82,90,2.3,CL,1619153041
39,hamilton,39.1834,-84.5333,39.0,80,1,4.25,US,1619152806
40,bud,39.447,-86.1758,39.0,68,29,6.64,US,1619152807
41,ponta do sol,32.6667,-17.1,60.01,84,69,5.99,PT,1619152807
42,kavieng,-2.5744,150.7967,82.26,76,92,6.35,PG,1619152808
43,hithadhoo,-0.6,73.0833,83.23,70,90,5.59,MV,1619153042
44,praia da vitoria,38.7333,-27.0667,55.0,82,75,31.0,PT,1619152808
45,grand gaube,-20.0064,57.6608,77.0,80,100,8.99,MU,1619153053
46,chuy,-33.6971,-53.4616,65.08,81,99,10.49,UY,1619152906
47,ivdel,60.6911,60.4206,43.56,89,100,5.66,RU,1619153054
48,puerto ayora,-0.7393,-90.3518,75.99,95,46,5.37,EC,1619153054
49,bethel,41.3712,-73.414,39.2,52,75,10.36,US,1619153054
50,maragogi,-9.0122,-35.2225,76.73,86,18,2.89,BR,1619153055
51,lazaro cardenas,17.9583,-102.2,75.15,61,100,1.86,MX,1619153055
52,teya,60.3778,92.6267,37.42,70,43,3.2,RU,1619152931
53,pionerskiy,54.9508,20.2275,39.0,93,75,8.95,RU,1619153055
54,bengkulu,-3.8004,102.2655,83.55,63,54,6.2,ID,1619152974
55,hilo,19.7297,-155.09,78.8,61,40,8.05,US,1619152820
56,namibe,-15.1961,12.1522,79.93,76,47,1.25,AO,1619153056
57,vaini,-21.2,-175.2,82.4,89,40,4.61,TO,1619153056
58,lebu,-37.6167,-73.65,49.69,77,39,4.09,CL,1619152872
59,cabo san lucas,22.8909,-109.9124,73.0,48,100,13.98,MX,1619152845
60,verkhnechusovskiye gorodki,58.1671,57.1086,42.8,75,90,11.18,RU,1619153057
61,naze,28.3667,129.4833,75.2,60,75,23.02,JP,1619153058
62,ilulissat,69.2167,-51.1,26.6,68,17,5.75,GL,1619153058
63,buala,-8.145,159.5921,84.36,70,98,5.59,SB,1619153058
64,nemuro,43.3236,145.575,46.4,61,20,10.36,JP,1619152963
65,severo-kurilsk,50.6789,156.125,35.4,90,84,2.35,RU,1619153059
66,new norfolk,-42.7826,147.0587,57.2,54,75,9.22,AU,1619152907
67,bicas,-21.7253,-43.0594,57.99,94,22,4.59,BR,1619153059
68,cherskiy,68.75,161.3,17.98,86,95,5.26,RU,1619153060
69,xiamen,24.4798,118.0819,86.0,54,20,8.95,CN,1619153060
70,upernavik,72.7868,-56.1549,13.35,86,100,3.65,GL,1619153060
71,khorixas,-20.3667,14.9667,69.6,33,29,7.4,NA,1619153061
72,howell,42.6073,-83.9294,37.0,51,1,3.44,US,1619152916
73,provideniya,64.3833,-173.3,39.2,56,0,11.18,RU,1619153062
74,kapaa,22.0752,-159.319,75.2,78,40,9.22,US,1619153043
75,mvomero,-6.25,38.6667,80.6,83,75,10.36,TZ,1619153062
76,altamont,42.2068,-121.7372,48.2,37,1,14.97,US,1619152831
77,iqaluit,63.7506,-68.5145,21.2,86,90,2.3,CA,1619152783
78,roebourne,-20.7833,117.1333,89.71,20,0,13.44,AU,1619152969
79,chokurdakh,70.6333,147.9167,9.14,89,62,2.62,RU,1619153063
80,laguna,38.421,-121.4238,52.0,76,1,11.5,US,1619153063
81,lavrentiya,65.5833,-171.0,30.87,70,99,1.05,RU,1619152985
82,bandar-e lengeh,26.5579,54.8807,82.4,69,11,4.61,IR,1619153064
83,pevek,69.7008,170.3133,26.6,84,62,1.36,RU,1619153064
84,norman wells,65.282,-126.8329,26.6,54,75,5.75,CA,1619153064
85,ornskoldsvik,63.2909,18.7153,32.0,55,75,16.11,SE,1619152870
86,christchurch,-43.5333,172.6333,66.0,52,77,3.44,NZ,1619152951
87,bonavista,48.6499,-53.1147,42.8,93,100,5.75,CA,1619153065
88,busselton,-33.65,115.3333,72.0,54,70,1.01,AU,1619153065
89,albany,42.6001,-73.9662,37.0,45,8,1.01,US,1619152470
90,souillac,-20.5167,57.5167,73.4,94,75,11.5,MU,1619153076
91,kargasok,59.0556,80.8572,37.42,78,11,4.14,RU,1619152912
92,vankleek hill,45.5168,-74.6493,37.0,55,7,6.91,CA,1619153076
93,victoria,22.2855,114.1577,86.0,62,1,7.0,HK,1619153000
94,dikson,73.5069,80.5464,32.25,97,100,22.03,RU,1619153077
95,dongsheng,39.8161,109.9776,66.45,29,95,20.83,CN,1619153077
96,xai-xai,-25.0519,33.6442,65.5,88,1,4.21,MZ,1619153077
97,zhuhai,22.2769,113.5678,96.01,78,20,10.36,CN,1619153078
98,spring valley,36.108,-115.245,75.2,7,20,8.05,US,1619152995
99,itoman,26.1247,127.6694,69.8,88,75,25.32,JP,1619153078
100,taldan,53.6667,124.8,38.28,31,38,11.3,RU,1619152850
101,sinop,41.7711,34.8709,51.8,82,0,14.97,TR,1619153079
102,fortuna,40.5982,-124.1573,50.0,93,1,5.75,US,1619153079
103,yellowknife,62.456,-114.3525,14.0,62,90,11.5,CA,1619152849
104,rangapara,26.8167,92.65,91.56,31,1,6.71,IN,1619153080
105,santa isabel do rio negro,-0.4139,-65.0192,73.8,98,100,1.48,BR,1619153080
106,port blair,11.6667,92.75,86.72,56,98,4.88,IN,1619153081
107,mar del plata,-38.0023,-57.5575,68.0,94,100,5.75,AR,1619152944
108,wewak,-3.5534,143.6268,79.14,87,100,1.86,PG,1619153081
109,viedma,-40.8135,-62.9967,58.62,66,64,6.93,AR,1619152873
110,sao borja,-28.6606,-56.0044,64.98,70,90,7.49,BR,1619153082
111,talaya,61.3833,152.75,29.98,88,100,5.77,RU,1619153082
112,roshchino,60.2519,29.6085,44.01,87,0,8.95,RU,1619153083
113,biltine,14.5333,20.9167,85.17,15,92,15.17,TD,1619153083
114,port-gentil,-0.7193,8.7815,76.82,83,89,13.0,GA,1619153083
115,isla vista,34.4133,-119.861,55.4,76,1,6.91,US,1619153084
116,mount gambier,-37.8333,140.7667,59.0,67,90,10.36,AU,1619153084
117,pochutla,15.7432,-96.4661,82.99,66,8,2.91,MX,1619153084
118,qaanaaq,77.484,-69.3632,18.36,91,100,8.57,GL,1619153085
119,westport,41.1415,-73.3579,39.2,52,20,11.5,US,1619153085
120,jamestown,42.097,-79.2353,30.2,86,1,13.8,US,1619152940
121,castro,-24.7911,-50.0119,50.38,96,21,3.36,BR,1619153086
122,batticaloa,7.7102,81.6924,85.91,65,4,5.03,LK,1619153086
123,yar-sale,66.8333,70.8333,34.57,96,83,16.4,RU,1619153086
124,xining,36.6167,101.7667,61.83,47,98,9.26,CN,1619152903
125,acajutla,13.5928,-89.8275,75.0,82,60,5.93,SV,1619153087
126,mabaruma,8.2,-59.7833,72.72,98,100,2.59,GY,1619152860
127,east london,-33.0153,27.9116,59.0,94,0,4.61,ZA,1619153087
128,krasnoselkup,65.7,82.4667,32.83,94,68,19.35,RU,1619153088
129,de aar,-30.6497,24.0123,57.36,37,57,2.46,ZA,1619153088
130,lagoa,39.05,-27.9833,56.62,80,8,38.65,PT,1619152789
131,buzim,45.0547,16.0319,50.0,33,100,7.0,BA,1619153042
132,te anau,-45.4167,167.7167,48.74,95,100,4.18,NZ,1619152880
133,iquitos,-3.7481,-73.2472,75.2,94,40,3.44,PE,1619152846
134,college,64.8569,-147.8028,53.6,42,20,11.5,US,1619153089
135,pontianak,-0.0333,109.3333,87.8,70,75,8.05,ID,1619152931
136,hobyo,5.3505,48.5268,85.53,63,100,9.55,SO,1619153100
137,santa isabel,-23.3156,-46.2214,59.0,100,75,0.31,BR,1619153100
138,mount isa,-20.7333,139.5,84.2,16,8,9.22,AU,1619153004
139,margate,51.3813,1.3862,43.0,82,3,1.99,GB,1619153100
140,san javier,37.8063,-0.8374,59.0,100,90,4.61,ES,1619153101
141,gatesville,31.4352,-97.7439,61.0,88,75,8.05,US,1619152945
142,letnyaya stavka,45.4306,43.4472,53.85,79,71,12.93,RU,1619153101
143,kaitangata,-46.2817,169.8464,55.99,74,100,7.0,NZ,1619153103
144,lasa,46.6166,10.7002,43.0,87,0,6.91,IT,1619153104
145,bilibino,68.0546,166.4372,28.98,84,94,0.65,RU,1619153104
146,kahului,20.8947,-156.47,78.8,61,20,17.27,US,1619152852
147,puerto carreno,6.189,-67.4859,82.22,59,24,6.2,CO,1619153104
148,xingcheng,40.6167,120.7167,50.92,93,100,10.58,CN,1619153105
149,edgewater,28.9889,-80.9023,63.0,77,1,9.22,US,1619153105
150,tautira,-17.7333,-149.15,82.4,69,20,4.61,PF,1619153105
151,stranda,62.3096,6.9358,32.0,94,100,1.3,NO,1619153106
152,sampit,-2.5333,112.95,93.61,42,71,2.71,ID,1619153106
153,airai,-8.9266,125.4092,75.02,52,37,2.73,TL,1619152931
154,pisco,-13.7,-76.2167,66.99,88,1,2.3,PE,1619153100
155,buchanan,5.8808,-10.0467,73.4,94,75,4.56,LR,1619153107
156,kruisfontein,-34.0033,24.7314,57.99,95,0,7.0,ZA,1619153108
157,san roque,36.2107,-5.3842,62.6,88,75,20.71,ES,1619152878
158,mouila,-1.8685,11.0559,71.08,99,100,2.42,GA,1619153108
159,tiksi,71.6872,128.8694,19.35,80,100,3.36,RU,1619153108
160,san patricio,28.017,-97.5169,72.0,94,90,13.8,US,1619153046
161,rundu,-17.9333,19.7667,55.51,50,1,5.73,NA,1619153109
162,hofn,64.2539,-15.2082,37.94,77,96,1.92,IS,1619153109
163,melipilla,-33.7,-71.2167,61.0,100,90,2.3,CL,1619153110
164,nikolskoye,59.7035,30.7861,42.01,87,0,8.95,RU,1619153110
165,ozark,37.0209,-93.206,46.0,90,100,5.86,US,1619153110
166,carnarvon,-24.8667,113.6333,78.8,53,99,9.22,AU,1619153111
167,totkomlos,46.4167,20.7333,43.0,87,0,9.22,HU,1619153111
168,awjilah,29.1081,21.2869,67.87,24,17,13.8,LY,1619153112
169,daru,-9.0763,143.2092,84.38,71,34,5.35,PG,1619153112
170,champerico,14.3,-91.9167,69.01,97,92,0.81,GT,1619152888
171,dawlatabad,36.4141,64.9053,71.98,12,3,9.66,AF,1619153113
172,saskylakh,71.9167,114.0833,12.54,89,93,5.59,RU,1619153113
173,port elizabeth,-33.918,25.5701,64.4,82,0,14.97,ZA,1619153113
174,danjiangkou,32.5428,111.5086,59.5,94,100,11.43,CN,1619153114
175,richards bay,-28.783,32.0377,65.84,88,85,11.34,ZA,1619153114
176,tilichiki,60.4667,166.1,30.0,84,11,2.93,RU,1619153115
177,sfantu gheorghe,45.8667,25.7833,44.01,78,97,0.76,RO,1619153115
178,mto wa mbu,-3.35,35.85,68.32,90,100,3.8,TZ,1619153115
179,porto murtinho,-21.6989,-57.8825,73.35,47,1,3.67,BR,1619153116
180,iralaya,15.0,-83.2333,76.96,83,9,10.58,HN,1619153126
181,dolores,-36.3132,-57.6792,64.47,90,86,8.81,AR,1619153126
182,burley,42.5357,-113.7928,44.6,49,1,6.91,US,1619153127
183,pirapo,-26.85,-55.5333,65.52,68,96,3.0,PY,1619153127
184,vostok,46.4856,135.8833,62.85,35,100,11.79,RU,1619153128
185,chingirlau,51.095,54.0814,49.01,67,100,13.91,KZ,1619153128
186,asau,46.4333,26.4,45.0,55,73,1.28,RO,1619152892
187,lorengau,-2.0226,147.2712,85.26,67,95,10.69,PG,1619153128
188,dryden,49.7833,-92.7503,51.8,30,1,11.5,CA,1619153107
189,roma,43.2128,-75.4557,35.6,55,1,13.8,US,1619153129
190,najran,17.4924,44.1277,69.8,17,0,4.61,SA,1619152930
191,oksfjord,70.2396,22.3479,32.0,69,40,1.14,NO,1619153129
192,sembe,1.6481,14.5806,71.02,97,100,2.24,CG,1619153130
193,sitka,57.0531,-135.33,48.2,53,1,4.61,US,1619152893
194,lima,-12.0432,-77.0282,64.4,88,20,8.05,PE,1619152981
195,saldanha,-33.0117,17.9442,57.2,94,0,6.91,ZA,1619153130
196,ruteng,-8.6136,120.4721,74.62,58,14,0.56,ID,1619153131
197,tshikapa,-6.4167,20.8,69.62,95,84,2.44,CD,1619153131
198,barrow,71.2906,-156.7887,23.0,80,1,4.61,US,1619153132
199,almaznyy,48.0448,40.045,51.8,82,0,6.71,RU,1619153132
200,merauke,-8.4667,140.3333,85.48,70,34,8.16,ID,1619153132
201,faanui,-16.4833,-151.75,81.34,71,10,13.33,PF,1619153133
202,loudi,27.7344,111.9944,71.6,76,99,5.93,CN,1619153133
203,luzhou,28.8724,105.4405,71.35,84,100,1.52,CN,1619153133
204,arraial do cabo,-22.9661,-42.0278,73.11,77,7,22.03,BR,1619153134
205,acapulco,16.8634,-99.8901,79.18,61,96,5.08,MX,1619153096
206,khatanga,71.9667,102.5,32.29,95,100,15.57,RU,1619153134
207,preobrazheniye,42.9019,133.9064,57.78,45,100,12.57,RU,1619153135
208,frunzivka,47.3333,29.75,51.15,80,83,8.37,UA,1619153135
209,karema,-6.8205,30.4389,69.78,83,0,6.35,TZ,1619153135
210,nouadhibou,20.931,-17.0347,62.6,94,0,13.8,MR,1619153136
211,vao,-22.6667,167.4833,74.8,71,84,12.26,NC,1619153136
212,santa maria,-29.6842,-53.8069,59.61,84,70,6.51,BR,1619153137
213,bela,25.9333,81.9833,97.34,13,0,7.56,IN,1619153137
214,padang,-0.9492,100.3543,86.0,66,40,5.75,ID,1619153137
215,geraldton,-28.7667,114.6,84.2,20,100,2.3,AU,1619152877
216,basoko,1.2391,23.616,71.28,96,100,3.76,CD,1619153138
217,barra do bugres,-15.0725,-57.1811,70.07,70,20,3.29,BR,1619153138
218,leningradskiy,69.3833,178.4167,31.68,84,92,5.64,RU,1619152891
219,atasu,48.6814,71.6433,40.8,28,0,12.19,KZ,1619152875
220,tullow,52.8003,-6.7369,37.99,84,85,5.77,IE,1619153139
221,heyang,26.1011,107.473,74.08,80,98,11.39,CN,1619153139
222,zhangjiakou,40.81,114.8794,72.57,31,6,8.19,CN,1619153139
223,abu dhabi,24.4667,54.3667,78.8,53,0,4.61,AE,1619152896
224,saint george,37.1041,-113.5841,66.0,17,1,4.61,US,1619153140
225,tahe,52.3333,124.7333,41.92,21,89,10.45,CN,1619152939
226,sorong,-0.8833,131.25,83.08,76,73,3.87,ID,1619153140
227,broken hill,-31.95,141.4333,66.2,39,37,8.05,AU,1619153151
228,santa rosa,14.3122,121.1114,91.99,58,20,9.22,PH,1619153151
229,cruzilia,-21.8386,-44.8083,52.09,96,1,2.98,BR,1619153151
230,polyanka,50.2584,27.6881,40.17,79,100,8.25,UA,1619153152
231,tessalit,20.1986,1.0114,79.11,9,0,6.89,ML,1619153152
232,macusani,-14.0833,-70.4333,33.33,83,51,1.99,PE,1619153153
233,marsa matruh,31.3525,27.2453,55.4,82,40,3.44,EG,1619152943
234,roald,62.5833,6.1333,37.4,60,75,6.91,NO,1619153153
235,vila,42.0304,-8.1588,51.01,94,100,3.0,PT,1619153154
236,agucadoura,41.4318,-8.7804,59.0,82,0,9.22,PT,1619153154
237,mercedes,-34.6515,-59.4307,66.0,96,100,3.0,AR,1619153154
238,itarema,-2.9248,-39.9167,75.15,91,27,5.17,BR,1619153155
239,korla,41.7597,86.1469,41.79,58,100,9.42,CN,1619153155
240,kashi,39.4547,75.9797,60.8,6,0,8.95,CN,1619153155
241,sioux lookout,50.1001,-91.917,46.4,39,20,4.61,CA,1619153156
242,aklavik,68.2191,-135.0107,21.2,53,89,5.75,CA,1619153156
243,astana,51.1801,71.446,41.0,33,0,13.42,KZ,1619153156
244,dingle,10.9995,122.6711,91.22,51,100,14.7,PH,1619152990
245,adrar,20.5022,-10.0711,72.18,14,0,9.98,MR,1619153157
246,rawson,-43.3002,-65.1023,55.99,72,8,6.64,AR,1619153157
247,manono,-7.3,27.4167,69.21,88,6,3.27,CD,1619153158
248,cortland,42.6001,-76.083,30.2,86,1,5.75,US,1619153158
249,spirit river,55.7833,-118.8361,30.2,51,62,2.3,CA,1619152990
250,morelia,19.7008,-101.1844,68.0,19,90,5.75,MX,1619153158
251,teknaf,20.8624,92.3058,89.55,61,5,10.89,BD,1619153159
252,makakilo city,21.3469,-158.0858,80.6,50,1,8.05,US,1619152978
253,sept-iles,50.2001,-66.3821,37.4,100,90,11.5,CA,1619153159
254,mahebourg,-20.4081,57.7,73.4,94,75,11.5,MU,1619153160
255,kharp,66.8014,65.8081,34.81,100,100,2.91,RU,1619153160
256,waipawa,-41.4122,175.5153,62.6,77,75,19.57,NZ,1619153160
257,la quinta,33.6634,-116.31,69.8,40,1,28.77,US,1619153161
258,yingcheng,30.95,113.55,71.6,78,40,13.42,CN,1619153161
259,becej,45.6163,20.0333,44.01,79,100,8.55,RS,1619153161
260,lovozero,68.005,35.0117,32.9,97,100,6.73,RU,1619153162
261,ankara,39.9199,32.8543,46.99,70,0,3.51,TR,1619153162
262,constitucion,-35.3333,-72.4167,53.37,83,34,6.42,CL,1619153047
263,nalut,30.3333,10.85,70.52,24,9,9.78,LY,1619152890
264,porto belo,-27.1578,-48.5531,64.99,54,12,8.39,BR,1619153163
265,longyearbyen,78.2186,15.6401,17.6,62,75,4.61,SJ,1619153163
266,ancud,-41.8697,-73.8203,48.99,100,40,3.44,CL,1619153163
267,abu kamal,34.4506,40.9171,70.18,26,96,11.83,SY,1619153164
268,sotnikovo,51.8845,107.4791,42.8,26,20,8.95,RU,1619153164
269,gravelbourg,49.8834,-106.5512,28.4,59,100,12.66,CA,1619153164
270,eatonton,33.3268,-83.3885,44.6,87,1,2.19,US,1619153165
271,trinidad,-14.8333,-64.9,73.31,92,60,3.51,BO,1619153165
272,bahia honda,22.9036,-83.1592,73.72,88,38,7.18,CU,1619153165
273,sucua,-2.4667,-78.1667,67.15,92,98,2.77,EC,1619153166
274,okoneshnikovo,54.8377,75.0834,41.88,39,30,7.63,RU,1619153166
275,bardiyah,31.7561,25.0865,62.33,67,99,12.48,LY,1619153177
276,kaeo,-35.1,173.7833,68.0,86,96,1.01,NZ,1619152953
277,luanda,-8.8368,13.2343,77.0,83,75,3.44,AO,1619153082
278,ribeira grande,38.5167,-28.7,57.54,75,21,33.67,PT,1619153177
279,revelstoke,50.9832,-118.2023,46.4,61,1,3.44,CA,1619153178
280,petropavlovsk-kamchatskiy,53.0452,158.6483,46.4,66,65,13.42,RU,1619153178
281,muros,42.7762,-9.0603,52.0,95,100,9.82,ES,1619153178
282,svetlaya,46.5389,138.3297,56.55,52,100,11.23,RU,1619153178
283,ranot,7.7777,100.3213,87.51,62,100,8.61,TH,1619153179
284,salinopolis,-0.6136,-47.3561,77.23,86,100,5.23,BR,1619153005
285,zhigansk,66.7697,123.3711,25.54,79,100,3.53,RU,1619152969
286,sur,22.5667,59.5289,89.73,39,0,0.69,OM,1619153180
287,ketchikan,55.3422,-131.6461,50.0,50,1,5.75,US,1619152892
288,salalah,17.0151,54.0924,82.4,69,0,1.14,OM,1619153180
289,luderitz,-26.6481,15.1594,64.76,69,17,8.95,NA,1619152964
290,codrington,-38.2667,141.9667,58.95,63,100,13.73,AU,1619153181
291,dunedin,-45.8742,170.5036,57.99,65,100,1.99,NZ,1619152932
292,walvis bay,-22.9575,14.5053,63.0,77,55,3.44,NA,1619153181
293,paraiso,9.8383,-83.8656,69.8,78,0,8.05,CR,1619153182
294,misratah,32.3754,15.0925,68.86,48,13,15.97,LY,1619153182
295,nenjiang,49.1833,125.2167,43.32,46,96,14.92,CN,1619153182
296,culpeper,38.5004,-77.9664,41.0,56,40,4.97,US,1619153009
297,sabanalarga,10.6296,-74.9206,80.6,78,0,16.11,CO,1619153183
298,annau,37.8876,58.516,66.2,27,23,4.61,TM,1619153183
299,ballina,-28.8667,153.5667,71.6,49,0,10.36,AU,1619153183
300,vilyuysk,63.7553,121.6247,30.94,85,100,9.91,RU,1619153184
301,kalangala,-0.3089,32.225,66.2,88,40,11.5,UG,1619153184
302,atar,20.5169,-13.0499,73.29,15,0,7.81,MR,1619153185
303,mataram,-8.5833,116.1167,86.0,62,40,6.91,ID,1619153185
304,lagunas,-5.2269,-75.6753,73.51,91,84,1.36,PE,1619153185
305,high level,58.5169,-117.136,26.6,59,20,4.61,CA,1619153186
306,ahipara,-35.1667,173.1667,64.94,86,89,4.36,NZ,1619153186
307,xingyi,24.1877,102.817,83.35,22,0,12.35,CN,1619153186
308,fare,-16.7,-151.0167,80.65,73,5,12.77,PF,1619153042
309,sola,-13.8833,167.55,83.53,74,100,14.79,VU,1619153187
310,vilhena,-12.7406,-60.1458,69.76,88,58,3.06,BR,1619153187
311,aguimes,27.9054,-15.4461,66.0,72,40,4.61,ES,1619153188
312,hellvik,59.9156,5.781,37.99,93,75,2.3,NO,1619153188
313,pangnirtung,66.1451,-65.7125,23.25,79,92,5.19,CA,1619152907
314,tomatlan,19.9333,-105.25,70.14,78,100,1.48,MX,1619153168
315,nabire,-3.3667,135.4833,86.36,66,86,7.45,ID,1619153048
316,victorville,34.5361,-117.2912,53.01,70,7,3.0,US,1619152955
317,moose factory,51.2585,-80.6094,30.2,64,1,5.75,CA,1619153189
318,hollola,61.05,25.4333,42.01,86,99,1.01,FI,1619153189
319,alofi,-19.0595,-169.9187,84.2,74,40,11.5,NU,1619152898
320,klaksvik,62.2266,-6.589,41.0,93,90,4.61,FO,1619152919
321,wageningen,51.9667,5.6667,36.0,93,90,2.3,NL,1619153200
322,talnakh,69.4865,88.3972,33.93,98,100,13.31,RU,1619153200
323,pucara,-15.9803,-71.4606,37.78,39,72,1.61,PE,1619153026
324,vanimo,-2.6741,141.3028,82.98,79,100,7.09,PG,1619153201
325,asmara,15.3333,38.9333,64.2,41,20,4.27,ER,1619153201
326,pak phanang,8.3511,100.202,93.99,55,20,3.44,TH,1619153202
327,drayton valley,53.2168,-114.9854,27.0,66,62,3.62,CA,1619152946
328,necochea,-38.5473,-58.7368,61.0,98,100,1.99,AR,1619153203
329,nikolayevsk-na-amure,53.1406,140.73,34.43,97,100,4.09,RU,1619153203
330,salas,43.4118,-6.2602,55.4,76,0,6.91,ES,1619153203
331,krasnoshchekovo,51.6708,82.7289,39.97,48,26,13.96,RU,1619153204
332,novyy yarychiv,49.9044,24.3052,35.01,93,68,4.47,UA,1619153204
333,naryan-mar,67.6713,53.087,36.39,97,100,16.96,RU,1619153204
334,ostrovnoy,68.0531,39.5131,34.9,96,97,12.68,RU,1619153058
335,miramar,25.9873,-80.2323,75.99,69,90,12.66,US,1619153205
336,hasaki,35.7333,140.8333,66.0,41,20,12.66,JP,1619153205
337,adelaide,-34.9333,138.6,68.0,55,75,10.36,AU,1619152945
338,becerril,9.7041,-73.2793,81.19,65,68,3.29,CO,1619153206
339,cortez,37.3489,-108.5859,51.8,37,90,4.61,US,1619153206
340,svetlyy,54.675,20.1347,39.0,93,75,8.95,RU,1619153195
341,turukhansk,65.8167,87.9833,32.25,99,65,13.58,RU,1619152912
342,tiznit,29.5833,-9.5,57.49,87,56,0.45,MA,1619152970
343,alice springs,-23.7,133.8833,73.99,28,0,13.8,AU,1619153204
344,sorrento,40.626,14.3744,55.99,51,100,6.73,IT,1619153207
345,kumluca,36.3703,30.2869,67.71,48,6,2.93,TR,1619153208
346,berlevag,70.8578,29.0864,33.85,67,83,3.22,NO,1619153208
347,batsfjord,70.6345,29.7185,33.8,80,75,6.91,NO,1619153209
348,gashua,12.871,11.0482,82.11,13,55,3.91,NG,1619153209
349,saint-joseph,-21.3667,55.6167,78.8,73,20,11.5,RE,1619153209
350,agadir,30.4202,-9.5982,60.8,82,90,6.91,MA,1619153067
351,nanortalik,60.1432,-45.2371,34.21,87,42,4.54,GL,1619153210
352,martapura,-3.4167,114.85,91.4,52,20,4.61,ID,1619153210
353,awbari,26.5921,12.7805,75.85,18,29,16.91,LY,1619153211
354,qaqortoq,60.7167,-46.0333,39.2,48,75,2.3,GL,1619153211
355,kaseda,31.4167,130.3167,69.8,52,75,14.97,JP,1619153211
356,youhao,47.8667,128.8333,52.72,74,100,6.42,CN,1619153212
357,soyo,-6.1349,12.3689,77.32,89,100,5.08,AO,1619153212
358,da lat,11.9465,108.4419,71.46,79,100,1.16,VN,1619152951
359,san cristobal,7.7669,-72.225,69.12,63,9,0.63,VE,1619153212
360,podgornoye,51.735,39.1496,50.0,76,0,6.71,RU,1619153213
361,katherine,-14.4667,132.2667,91.4,27,17,14.97,AU,1619153213
362,vila do maio,15.1333,-23.2167,68.0,77,0,9.22,CV,1619153214
363,egvekinot,66.3167,-179.1667,27.5,78,52,2.04,RU,1619153224
364,mende,44.6667,3.5,34.23,94,0,3.76,FR,1619153225
365,kanigiri,15.4,79.5167,92.55,42,94,2.17,IN,1619153225
366,shimoda,34.6667,138.95,60.8,55,75,12.66,JP,1619153226
367,riyadh,24.6877,46.7219,77.0,19,0,9.1,SA,1619152935
368,erenhot,43.6475,111.9767,68.61,26,1,17.47,CN,1619153111
369,leninskoye,41.7589,69.3864,66.2,45,0,9.22,KZ,1619153055
370,desnogorsk,54.1508,33.2815,41.63,93,100,7.76,RU,1619153226
371,kalispell,48.1958,-114.3129,37.4,52,90,14.97,US,1619153227
372,raudeberg,61.9875,5.1352,35.01,92,95,11.92,NO,1619153227
373,kupang,-10.1667,123.5833,84.25,64,5,5.64,ID,1619153227
374,aksarka,66.5606,67.7975,35.58,99,95,12.66,RU,1619153115
375,avera,33.194,-82.5271,42.8,81,1,2.01,US,1619152956
376,kurumkan,54.3,110.3,41.02,26,19,2.91,RU,1619153228
377,taguatinga,-12.3857,-46.5711,69.51,94,29,1.66,BR,1619153229
378,guane,22.2025,-84.0875,72.07,90,49,6.38,CU,1619153229
379,vila franca do campo,37.7167,-25.4333,57.2,72,40,29.93,PT,1619153229
380,los llanos de aridane,28.6585,-17.9182,64.4,82,0,5.75,ES,1619153230
381,dhidhdhoo,6.8833,73.1,83.43,72,22,5.73,MV,1619153230
382,tual,-5.6667,132.75,82.98,74,21,7.38,ID,1619153230
383,kongolo,-5.3833,27.0,69.24,95,70,2.59,CD,1619153231
384,mayya,61.7333,130.2811,33.8,37,0,8.95,RU,1619153231
385,kosonsoy,41.2561,71.5508,62.6,42,19,4.61,UZ,1619153232
386,saint-leu,-21.15,55.2833,78.8,73,20,11.5,RE,1619153232
387,samarai,-10.6167,150.6667,83.68,73,68,5.77,PG,1619153232
388,arlit,18.7369,7.3853,77.77,8,17,4.34,NE,1619153233
389,shenjiamen,29.9576,122.298,62.4,96,100,5.28,CN,1619153117
390,nadym,65.5333,72.5167,34.43,98,78,18.92,RU,1619152999
391,kyra,49.5776,111.9753,45.48,36,100,6.55,RU,1619153167
392,sao filipe,14.8961,-24.4956,71.19,74,41,13.85,CV,1619153233
393,chengzihe,45.3333,131.0667,63.54,56,100,9.06,CN,1619153234
394,keningau,5.3378,116.1602,89.6,70,20,6.91,MY,1619153234
395,kununurra,-15.7667,128.7333,93.2,27,45,10.36,AU,1619153234
396,beyneu,45.3167,55.2,65.12,17,99,24.14,KZ,1619153235
397,samoded,63.6083,40.5111,42.39,76,47,5.14,RU,1619153235
398,kolosovka,56.4678,73.611,42.89,40,9,12.91,RU,1619153235
399,kingman,35.1894,-114.053,60.8,27,1,9.22,US,1619153236
400,boguchany,58.3814,97.4531,41.36,64,27,4.12,RU,1619153236
401,ndende,-2.4008,11.3581,69.17,99,100,1.21,GA,1619153237
402,gizo,-8.103,156.8419,83.77,72,100,5.35,SB,1619153237
403,strezhevoy,60.7333,77.5889,42.8,39,0,13.42,RU,1619153237
404,broome,42.2506,-75.833,32.0,74,75,13.8,US,1619153238
405,kingaroy,-26.5333,151.8333,75.0,23,5,8.05,AU,1619153238
406,clyde river,70.4692,-68.5914,12.2,85,90,2.3,CA,1619153238
407,guatire,10.4762,-66.5427,70.12,97,61,0.98,VE,1619153239
408,vanavara,60.34,102.2797,34.99,80,99,9.48,RU,1619152977
409,byron bay,-28.65,153.6167,70.0,49,0,10.36,AU,1619153249
410,guerrero negro,27.9769,-114.0611,59.05,74,0,15.93,MX,1619153173
411,ayagoz,47.9714,80.4392,33.57,50,68,17.6,KZ,1619153250
412,godo,35.4167,136.6,55.0,66,100,7.0,JP,1619153250
413,pringsewu,-5.3582,104.9744,88.18,48,52,7.25,ID,1619153250
414,buzdyak,54.5833,54.55,40.06,96,100,5.73,RU,1619153251
415,ponta delgada,37.7333,-25.6667,57.2,72,40,29.93,PT,1619153251
416,savannah bight,16.45,-85.85,80.01,86,8,3.0,HN,1619153251
417,port moresby,-9.4431,147.1797,87.8,70,40,17.27,PG,1619153252
418,port hardy,50.6996,-127.4199,53.6,40,75,8.05,CA,1619153252
419,nome,64.5011,-165.4064,42.8,52,1,8.05,US,1619153160
420,yumen,40.2833,97.2,53.73,23,100,22.84,CN,1619152990
421,torbay,47.6666,-52.7314,42.8,100,90,13.8,CA,1619152994
422,filadelfia,39.9523,-75.1638,43.0,39,1,12.66,US,1619153068
423,dalvik,65.9702,-18.5286,37.4,93,0,4.43,IS,1619153253
424,pangoa,-12.1167,-73.0,68.25,98,68,1.92,PE,1619153253
425,masingbi,8.7833,-11.95,74.61,93,44,2.33,SL,1619153254
426,husavik,66.0449,-17.3389,37.4,93,0,6.8,IS,1619153254
427,dalby,-27.1833,151.2667,71.6,28,0,8.05,AU,1619153254
428,sandy bay,-42.913,147.3532,59.0,51,75,16.11,AU,1619153255
429,puerto quijarro,-17.7833,-57.7667,76.06,52,38,2.98,BO,1619153255
430,delvada,20.7667,71.0333,91.33,38,99,10.04,IN,1619153255
431,havoysund,70.9963,24.6622,33.8,80,75,6.91,NO,1619153023
432,torbat-e jam,35.244,60.6225,70.41,7,17,3.83,IR,1619153256
433,chulym,55.0997,80.9572,41.18,52,15,11.48,RU,1619153256
434,koslan,63.4564,48.8989,40.23,90,100,5.1,RU,1619153257
435,warmbad,-28.45,18.7333,67.59,35,1,2.93,NA,1619153257
436,deming,32.2687,-107.7586,64.4,16,1,11.5,US,1619153257
437,isangel,-19.55,169.2667,86.0,74,40,8.23,VU,1619153258
438,sao lourenco do sul,-31.3653,-51.9783,62.01,92,7,9.33,BR,1619153258
439,esik,43.3552,77.4525,42.8,39,75,6.71,KZ,1619153258
440,katangli,51.7102,143.2326,45.54,80,59,10.25,RU,1619153259
441,imbituba,-28.24,-48.6703,66.2,88,75,4.61,BR,1619153259
442,la ronge,55.1001,-105.2842,19.4,53,46,2.3,CA,1619153259
443,bandarbeyla,9.4942,50.8122,83.86,69,93,8.01,SO,1619153260
444,taoudenni,22.6783,-3.9836,82.58,10,0,9.19,ML,1619153260
445,pavelets,53.7883,39.246,54.0,59,56,11.03,RU,1619153260
446,coihaique,-45.5752,-72.0662,39.2,93,90,4.61,CL,1619153030
447,lerwick,60.1545,-1.1494,42.8,81,100,9.22,GB,1619153261
448,sosnovo-ozerskoye,52.5249,111.5418,37.9,23,100,6.31,RU,1619153261
449,nantucket,41.2835,-70.0995,41.0,42,1,17.27,US,1619153262
450,makasar,-5.14,119.4221,87.8,66,20,6.91,ID,1619153262
451,road town,18.4167,-64.6167,79.0,85,68,5.99,VG,1619153262
452,rocha,-34.4833,-54.3333,62.98,88,100,9.95,UY,1619153263
453,damphu,27.0721,90.1096,80.47,33,14,6.4,BT,1619153263
454,mazagao,-0.115,-51.2894,77.0,100,75,1.14,BR,1619153263
455,jackson,42.4165,-122.8345,62.6,36,1,6.91,US,1619153264
456,beni,0.5,29.4667,62.51,98,99,2.35,CD,1619153264
457,katsuura,35.1333,140.3,66.0,51,75,11.5,JP,1619153264
458,merritt,50.1123,-120.7942,50.0,34,1,2.3,CA,1619153107
459,seymchan,62.8833,152.4333,27.07,92,100,9.57,RU,1619153275
460,portland,45.5234,-122.6762,54.0,57,8,1.19,US,1619153066
461,bayir,37.2687,28.2167,46.4,93,0,3.44,TR,1619153275
462,bowen,-20.0167,148.2333,69.8,94,90,11.5,AU,1619153276
463,saint-francois,46.4154,3.9054,37.0,87,0,2.3,FR,1619153276
464,epe,6.5841,3.9834,78.98,89,90,4.0,NG,1619153277
465,chumikan,54.7183,135.315,37.22,59,100,4.29,RU,1619153277
466,praya,14.9215,-23.5087,68.0,77,0,9.22,CV,1619153277
467,emerald,-23.5333,148.1667,78.01,33,90,10.36,AU,1619153278
468,copiapo,-27.3667,-70.3333,59.0,77,90,8.05,CL,1619153139
469,mackenzie,55.2999,-123.1698,37.4,35,1,3.44,CA,1619153278
470,pahrump,36.2083,-115.9839,64.0,11,8,1.99,US,1619152983
471,salamiyah,35.0113,37.0532,61.7,32,0,0.38,SY,1619153279
472,kalmunai,7.4167,81.8167,87.06,62,6,6.02,LK,1619153279
473,sorland,67.667,12.6934,33.8,75,75,9.22,NO,1619153279
474,sicuani,-14.2694,-71.2261,41.05,80,89,1.88,PE,1619153280
475,jiwani,25.05,61.7417,84.74,64,0,2.82,PK,1619153280
476,harbour breton,47.4833,-55.7983,36.46,81,83,21.12,CA,1619153280
477,santa fe,-31.6333,-60.7,68.0,81,3,1.01,AR,1619153262
478,nehe,48.4833,124.8333,49.06,41,98,16.51,CN,1619153281
479,concordia,-31.393,-58.0209,64.4,88,0,6.13,AR,1619153281
480,lakes entrance,-37.8811,147.981,64.99,50,83,1.99,AU,1619153282
481,pasighat,28.0667,95.3333,87.6,44,2,4.43,IN,1619153282
482,esperance,-33.8667,121.9,69.8,49,40,8.05,AU,1619153282
483,alanya,36.5438,31.9998,55.4,88,0,5.75,TR,1619153283
484,taketoyo,34.85,136.9167,66.99,59,75,20.71,JP,1619153283
485,zurrieq,35.8311,14.4742,59.0,94,20,11.5,MT,1619153283
486,valparaiso,-33.0393,-71.6273,57.0,79,93,5.46,CL,1619153284
487,bonga,7.2833,36.2333,62.46,96,100,1.34,ET,1619153284
488,lander,42.833,-108.7307,46.4,34,1,4.61,US,1619153285
489,japura,-0.3167,102.35,88.25,57,92,4.32,ID,1619153285
490,khingansk,49.1167,131.1833,53.92,48,93,10.65,RU,1619153285
491,changji,44.0167,87.3167,41.0,38,0,11.18,CN,1619153286
492,haines junction,60.7522,-137.5108,44.6,36,0,4.61,CA,1619153286
493,birjand,32.8663,59.2211,71.6,20,0,7.63,IR,1619153166
494,tripoli,32.8752,13.1875,68.95,62,53,11.61,LY,1619153110
495,ilo,-17.6394,-71.3375,66.47,81,59,6.35,PE,1619153287
496,shiyan,32.6475,110.7781,58.71,95,100,7.92,CN,1619153287
497,dukat,62.55,155.55,23.47,89,100,5.26,RU,1619153287
498,kochinda,21.7333,84.35,93.2,38,75,5.75,IN,1619153288
499,kirakira,-10.4544,161.9205,83.91,74,100,9.44,SB,1619153288
500,sinnamary,5.3833,-52.95,77.65,87,94,11.83,GF,1619153288
501,boende,-0.2167,20.8667,70.36,93,77,2.62,CD,1619152992
502,chicama,-7.8447,-79.1469,62.6,94,75,8.05,PE,1619153289
503,aasiaat,68.7098,-52.8699,12.4,93,59,8.84,GL,1619153289
504,ambilobe,-13.2,49.05,78.42,76,99,3.49,MG,1619153300
505,mayo,38.8876,-76.5119,41.0,73,73,9.26,US,1619153300
506,iquique,-20.2208,-70.1431,68.0,60,40,6.91,CL,1619153263
507,saint anthony,45.0205,-93.218,53.6,32,1,8.05,US,1619153301
508,coahuayana,18.7333,-103.6833,70.7,63,97,3.04,MX,1619153301
509,touros,-5.1989,-35.4608,75.2,94,40,3.44,BR,1619153302
510,antofagasta,-23.65,-70.4,59.0,82,20,3.44,CL,1619153033
511,gat,31.61,34.7642,64.0,81,0,6.98,IL,1619153285
512,yerbogachen,61.2767,108.0108,33.4,75,100,11.7,RU,1619153007
513,vila velha,-20.3297,-40.2925,69.8,88,0,4.61,BR,1619153303
514,ribas do rio pardo,-20.4431,-53.7592,64.24,55,0,3.13,BR,1619153303
515,mason city,43.1536,-93.201,50.0,32,75,11.5,US,1619153303
516,pimentel,-6.8367,-79.9342,64.0,86,43,5.99,PE,1619153304
517,guilin,25.2819,110.2864,78.8,78,90,4.47,CN,1619153109
518,yulara,-25.2406,130.9889,77.0,27,0,9.22,AU,1619153304
519,port lincoln,-34.7333,135.8667,64.0,58,76,11.68,AU,1619153304
520,sovetskiy,61.3614,63.5842,40.87,94,100,7.92,RU,1619153305
521,puerto el triunfo,13.2833,-88.55,77.0,100,20,1.14,SV,1619153305
522,biak,-0.9131,122.8766,83.5,68,80,3.91,ID,1619153305
523,bo phloi,14.3236,99.5161,98.01,33,99,9.01,TH,1619153306
524,vardo,70.3705,31.1107,33.8,80,75,6.91,NO,1619153306
525,praia,14.9215,-23.5087,68.0,77,0,9.22,CV,1619153306
526,camacha,33.0833,-16.3333,66.2,72,40,12.66,PT,1619153307
527,evensk,61.95,159.2333,30.29,97,100,4.61,RU,1619153307
528,hare bay,48.8499,-54.0148,42.8,93,100,5.75,CA,1619153308
529,enshi,30.3,109.4833,70.93,80,96,1.34,CN,1619153308
530,santa lucia,27.9117,-15.5407,66.0,72,40,4.61,ES,1619153308
531,zhanaozen,43.3,52.8,63.59,18,100,13.02,KZ,1619153309
532,abalak,58.1286,68.5944,47.21,50,100,11.74,RU,1619153309
533,kotma,23.2,81.9667,95.32,9,55,3.27,IN,1619153309
534,alausi,-2.2,-78.8333,48.7,91,100,1.68,EC,1619153310
535,benjamin constant,-4.3831,-70.0311,77.0,100,0,2.3,BR,1619153310
536,atlantis,-33.5667,18.4834,57.99,98,0,4.56,ZA,1619153310
537,tommot,58.9564,126.2925,32.34,82,88,15.64,RU,1619153311
538,labuhan,-6.8844,112.2051,85.64,61,13,2.26,ID,1619153068
539,lashio,22.9333,97.75,97.88,19,1,4.25,MM,1619153311
540,udachnyy,66.4167,112.4,29.95,73,96,23.94,RU,1619153083
541,aloleng,16.1307,119.7824,83.14,67,52,16.15,PH,1619153312
542,preston,53.7667,-2.7167,43.0,76,10,1.01,GB,1619153312
543,port said,31.2565,32.2841,62.6,82,0,11.5,EG,1619153312
544,hinesville,31.8469,-81.5959,46.0,81,1,2.39,US,1619153145
545,monteagudo,-19.8167,-63.9833,61.47,96,74,2.17,BO,1619153313
546,chapleau,47.8405,-83.4034,28.44,72,44,7.09,CA,1619153107
547,constantine,36.365,6.6147,53.6,94,75,5.75,DZ,1619153313
548,taloqan,36.7361,69.5345,65.71,26,0,4.52,AF,1619153314
549,newport,51.5877,-2.9984,39.0,75,0,13.8,GB,1619153314
550,iskateley,67.6803,53.1512,36.3,97,100,16.96,RU,1619153314
551,marataizes,-21.0433,-40.8244,67.48,87,1,7.61,BR,1619153052
552,assiniboia,49.6334,-105.9845,28.4,59,100,12.66,CA,1619153325
553,porto walter,-8.2686,-72.7439,71.82,97,65,2.46,BR,1619153325
554,villahermosa,17.9833,-92.9167,76.37,86,23,4.38,MX,1619153326
555,soc trang,9.6033,105.98,82.4,83,75,4.61,VN,1619153326
556,buenos aires,-34.6132,-58.3772,71.6,78,0,8.05,AR,1619153220
557,talara,-4.5772,-81.2719,71.69,77,69,14.47,PE,1619153326
558,lompoc,34.6391,-120.4579,51.8,82,31,6.91,US,1619153233
559,bitam,2.076,11.5007,69.64,98,100,2.71,GA,1619153327
560,terekli-mekteb,44.1671,45.8698,51.19,89,100,8.48,RU,1619153328
561,tsiroanomandidy,-18.7667,46.0333,67.96,82,0,3.36,MG,1619153328
562,salym,60.0625,71.4789,43.68,54,84,12.62,RU,1619153328
563,cap-aux-meules,47.3821,-61.8597,35.6,75,51,19.57,CA,1619153329
564,naqadeh,36.9553,45.388,66.29,43,48,5.59,IR,1619153036
565,sambava,-14.2667,50.1667,76.64,89,92,9.35,MG,1619153329
